{
  "offset": 0,
  "limit": 10,
  "size": 11,
  "results": [
    {
      "id": "f9af217f-88dc-4992-b734-ca690658afa5",
      "title": "Designer Gráfico/Estágio",
      "company": "Agencia Madder",
      "location": {
        "city": "Belo Horizonte",
        "state": "MG"
      },
      "montlyIncome": 823,
      "creationDate": "2020-06-21T18:20:02Z"
    },
    {
      "id": "f9af217f-88dc-4992-b734-ca690658afa6",
      "title": "Designer Gráfico/Estágio",
      "company": "Agencia Madder",
      "location": {
        "city": "Belo Horizonte",
        "state": "MG"
      },
      "montlyIncome": 823,
      "creationDate": "2020-06-21T18:20:02Z"
    },
    {
      "id": "f9af217f-88dc-4992-b734-ca690658afa7",
      "title": "Designer Gráfico/Estágio",
      "company": "Agencia Madder",
      "location": {
        "city": "Belo Horizonte",
        "state": "MG"
      },
      "montlyIncome": 823,
      "creationDate": "2020-06-21T18:20:02Z"
    },
    {
      "id": "f9af217f-88dc-4992-b734-ca690658afa8",
      "title": "Designer Gráfico/Estágio",
      "company": "Agencia Madder",
      "location": {
        "city": "Belo Horizonte",
        "state": "MG"
      },
      "montlyIncome": 823,
      "creationDate": "2020-06-21T18:20:02Z"
    },
    {
      "id": "f9af217f-88dc-4992-b734-ca690658afa9",
      "title": "Designer Gráfico/Estágio",
      "company": "Agencia Madder",
      "location": {
        "city": "Belo Horizonte",
        "state": "MG"
      },
      "montlyIncome": 823,
      "creationDate": "2020-06-21T18:20:02Z"
    },
    {
      "id": "f9af217f-88dc-4992-b734-ca690658afa0",
      "title": "Designer Gráfico/Estágio",
      "company": "Agencia Madder",
      "location": {
        "city": "Belo Horizonte",
        "state": "MG"
      },
      "montlyIncome": 823,
      "creationDate": "2020-06-21T18:20:02Z"
    },
    {
      "id": "f9af217f-88dc-4992-b734-ca690658afaa",
      "title": "Designer Gráfico/Estágio",
      "company": "Agencia Madder",
      "location": {
        "city": "Belo Horizonte",
        "state": "MG"
      },
      "montlyIncome": 823,
      "creationDate": "2020-06-21T18:20:02Z"
    },
    {
      "id": "f9af217f-88dc-4992-b734-ca690658afab",
      "title": "Designer Gráfico/Estágio",
      "company": "Agencia Madder",
      "location": {
        "city": "Belo Horizonte",
        "state": "MG"
      },
      "montlyIncome": 823,
      "creationDate": "2020-06-21T18:20:02Z"
    },
    {
      "id": "f9af217f-88dc-4992-b734-ca690658afac",
      "title": "Designer Gráfico/Estágio",
      "company": "Agencia Madder",
      "location": {
        "city": "Belo Horizonte",
        "state": "MG"
      },
      "montlyIncome": 823,
      "creationDate": "2020-06-21T18:20:02Z"
    },
    {
      "id": "f9af217f-88dc-4992-b734-ca690658afad",
      "title": "Designer Gráfico/Estágio",
      "company": "Agencia Madder",
      "location": {
        "city": "Belo Horizonte",
        "state": "MG"
      },
      "montlyIncome": 823,
      "creationDate": "2020-06-21T18:20:02Z"
    },
    {
      "id": "f9af217f-88dc-4992-b734-ca690658afae",
      "title": "Designer Gráfico/Estágio",
      "company": "Agencia Madder",
      "location": {
        "city": "Belo Horizonte",
        "state": "MG"
      },
      "montlyIncome": 823,
      "creationDate": "2020-06-21T18:20:02Z"
    }
  ]
}
